[
      {
        "nombre": "Ciudad de México",
        "estado": "Cdmx",
        "coordenadas": { "lat": 19.357272, "lng": -99.147104},
        "habitantes": 8851080
      },
      {
        "nombre": "Monterrey",
        "estado": "Nuevo León",
        "coordenadas": {"lat":  25.6714, "lng": -100.309},
         "habitantes": 1142994
      },
      {
            "nombre": "Guadalajara",
        "estado": "Jalisco",
        "coordenadas": {"lat": 20.676012, "lng": -103.335069},
         "habitantes": 1495182
      },
      {
            "nombre": "Puebla",
        "estado": "Puebla",
        "coordenadas": {"lat": 19.041325, "lng": -98.210819},
         "habitantes": 1434062
      },
      {
            "nombre": "Acapulco",
        "estado": "Guerrero",
        "coordenadas": {"lat":  16.8638, "lng": -99.8816},
         "habitantes": 687608
      },
      {
            "nombre": "Juárez",
        "estado": "Chihuahua",
        "coordenadas": {"lat": 31.668894, "lng": -106.412507},
         "habitantes": 1300983
      },
      {
            "nombre": "León",
        "estado": "Guanajuato",
        "coordenadas": {"lat": 21.128611, "lng": -101.667725},
         "habitantes": 1238962
      }
    ]